{"type": "FeatureCollection", "features": [{"type": "Feature", "properties": {"airport_name": "Adampur"}, "geometry": {"type": "Point", "coordinates": [75.76055556, 31.43305556]}}, {"type": "Feature", "properties": {"airport_name": "Agartala"}, "geometry": {"type": "Point", "coordinates": [91.24222222, 23.89]}}, {"type": "Feature", "properties": {"airport_name": "Ahmedabad"}, "geometry": {"type": "Point", "coordinates": [72.63472222, 23.07722222]}}, {"type": "Feature", "properties": {"airport_name": "Amritsar"}, "geometry": {"type": "Point", "coordinates": [74.79916667, 31.70777778]}}, {"type": "Feature", "properties": {"airport_name": "Bagdogra"}, "geometry": {"type": "Point", "coordinates": [88.32861111, 26.68111111]}}, {"type": "Feature", "properties": {"airport_name": "Bangalore"}, "geometry": {"type": "Point", "coordinates": [77.70416667, 13.20694444]}}, {"type": "Feature", "properties": {"airport_name": "Belgaum"}, "geometry": {"type": "Point", "coordinates": [74.6175, 15.85916667]}}, {"type": "Feature", "properties": {"airport_name": "Chandigarh"}, "geometry": {"type": "Point", "coordinates": [76.79055556, 30.67472222]}}, {"type": "Feature", "properties": {"airport_name": "Chennai"}, "geometry": {"type": "Point", "coordinates": [80.16361111, 12.98222222]}}, {"type": "Feature", "properties": {"airport_name": "Coimbatore"}, "geometry": {"type": "Point", "coordinates": [77.04166667, 11.02666667]}}, {"type": "Feature", "properties": {"airport_name": "Dehradun"}, "geometry": {"type": "Point", "coordinates": [78.18027778, 30.18972222]}}, {"type": "Feature", "properties": {"airport_name": "Delhi"}, "geometry": {"type": "Point", "coordinates": [77.11222222, 28.56861111]}}, {"type": "Feature", "properties": {"airport_name": "Dharamshala"}, "geometry": {"type": "Point", "coordinates": [76.32, 32.218]}}, {"type": "Feature", "properties": {"airport_name": "Dibrugarh"}, "geometry": {"type": "Point", "coordinates": [95.016944, 27.48385278]}}, {"type": "Feature", "properties": {"airport_name": "Goa"}, "geometry": {"type": "Point", "coordinates": [73.83138889, 15.38083333]}}, {"type": "Feature", "properties": {"airport_name": "Gorakhpur"}, "geometry": {"type": "Point", "coordinates": [83.4496994, 26.73970032]}}, {"type": "Feature", "properties": {"airport_name": "Guwahati"}, "geometry": {"type": "Point", "coordinates": [91.58583333, 26.10611111]}}, {"type": "Feature", "properties": {"airport_name": "Hyderabad"}, "geometry": {"type": "Point", "coordinates": [78.43, 17.24]}}, {"type": "Feature", "properties": {"airport_name": "Jabalpur"}, "geometry": {"type": "Point", "coordinates": [80.05875, 23.18472222]}}, {"type": "Feature", "properties": {"airport_name": "Jaipur"}, "geometry": {"type": "Point", "coordinates": [75.81222222, 26.82416667]}}, {"type": "Feature", "properties": {"airport_name": "Jaisalmer"}, "geometry": {"type": "Point", "coordinates": [70.855, 26.88027778]}}, {"type": "Feature", "properties": {"airport_name": "Kandla"}, "geometry": {"type": "Point", "coordinates": [70.10030365, 23.11269951]}}, {"type": "Feature", "properties": {"airport_name": "Kanpur"}, "geometry": {"type": "Point", "coordinates": [80.36489868, 26.44140053]}}, {"type": "Feature", "properties": {"airport_name": "Kochi"}, "geometry": {"type": "Point", "coordinates": [76.391, 10.155]}}, {"type": "Feature", "properties": {"airport_name": "Kolkata"}, "geometry": {"type": "Point", "coordinates": [88.44666667, 22.65472222]}}, {"type": "Feature", "properties": {"airport_name": "Kozhikode"}, "geometry": {"type": "Point", "coordinates": [75.95, 11.14]}}, {"type": "Feature", "properties": {"airport_name": "Leh"}, "geometry": {"type": "Point", "coordinates": [77.54638889, 34.13583333]}}, {"type": "Feature", "properties": {"airport_name": "Madurai"}, "geometry": {"type": "Point", "coordinates": [78.08944444, 9.83361111]}}, {"type": "Feature", "properties": {"airport_name": "Mangalore"}, "geometry": {"type": "Point", "coordinates": [74.89, 12.96138889]}}, {"type": "Feature", "properties": {"airport_name": "Mumbai"}, "geometry": {"type": "Point", "coordinates": [72.86805556, 19.08861111]}}, {"type": "Feature", "properties": {"airport_name": "Patna"}, "geometry": {"type": "Point", "coordinates": [85.09194444, 25.59361111]}}, {"type": "Feature", "properties": {"airport_name": "Pondicherry"}, "geometry": {"type": "Point", "coordinates": [79.81444444, 11.96666667]}}, {"type": "Feature", "properties": {"airport_name": "Porbander"}, "geometry": {"type": "Point", "coordinates": [69.65720367, 21.64870071]}}, {"type": "Feature", "properties": {"airport_name": "Port Blair"}, "geometry": {"type": "Point", "coordinates": [92.72972222, 11.64111111]}}, {"type": "Feature", "properties": {"airport_name": "Pune"}, "geometry": {"type": "Point", "coordinates": [73.91972222, 18.58222222]}}, {"type": "Feature", "properties": {"airport_name": "Rajahmundry"}, "geometry": {"type": "Point", "coordinates": [81.81833333, 17.11027778]}}, {"type": "Feature", "properties": {"airport_name": "Silchar"}, "geometry": {"type": "Point", "coordinates": [92.97869873, 24.91290092]}}, {"type": "Feature", "properties": {"airport_name": "Srinagar"}, "geometry": {"type": "Point", "coordinates": [74.77425, 33.98713889]}}, {"type": "Feature", "properties": {"airport_name": "Surat"}, "geometry": {"type": "Point", "coordinates": [72.74525833, 21.11765833]}}, {"type": "Feature", "properties": {"airport_name": "Tirupati"}, "geometry": {"type": "Point", "coordinates": [79.54722222, 13.63777778]}}, {"type": "Feature", "properties": {"airport_name": "Trivandrum"}, "geometry": {"type": "Point", "coordinates": [76.92, 8.48]}}, {"type": "Feature", "properties": {"airport_name": "Tuticorin"}, "geometry": {"type": "Point", "coordinates": [78.02583333, 8.72416667]}}, {"type": "Feature", "properties": {"airport_name": "Udaipur"}, "geometry": {"type": "Point", "coordinates": [73.89611111, 24.61777778]}}, {"type": "Feature", "properties": {"airport_name": "Varanasi"}, "geometry": {"type": "Point", "coordinates": [82.85944444, 25.45222222]}}, {"type": "Feature", "properties": {"airport_name": "Vijayawada"}, "geometry": {"type": "Point", "coordinates": [80.79583333, 16.52888889]}}, {"type": "Feature", "properties": {"airport_name": "Vizag"}, "geometry": {"type": "Point", "coordinates": [83.22444444, 17.72111111]}}, {"type": "Feature", "properties": {"airport_name": "Mundra"}, "geometry": {"type": "Point", "coordinates": [69.76444444, 22.83416667]}}, {"type": "Feature", "properties": {"airport_name": "Bhubaneshwar"}, "geometry": {"type": "Point", "coordinates": [85.81780243, 20.24440002]}}, {"type": "Feature", "properties": {"airport_name": "Imphal"}, "geometry": {"type": "Point", "coordinates": [93.89666667, 24.76]}}, {"type": "Feature", "properties": {"airport_name": "Indore"}, "geometry": {"type": "Point", "coordinates": [75.80110168, 22.72179985]}}, {"type": "Feature", "properties": {"airport_name": "Nagpur"}, "geometry": {"type": "Point", "coordinates": [79.04722222, 21.09222222]}}, {"type": "Feature", "properties": {"airport_name": "Ranchi"}, "geometry": {"type": "Point", "coordinates": [85.32166667, 23.31416667]}}, {"type": "Feature", "properties": {"airport_name": "Agra"}, "geometry": {"type": "Point", "coordinates": [77.96083333, 27.1575]}}, {"type": "Feature", "properties": {"airport_name": "Aizawal"}, "geometry": {"type": "Point", "coordinates": [92.61969757, 23.84059906]}}, {"type": "Feature", "properties": {"airport_name": "Aurangabad"}, "geometry": {"type": "Point", "coordinates": [75.39805556, 19.86277778]}}, {"type": "Feature", "properties": {"airport_name": "Bhopal"}, "geometry": {"type": "Point", "coordinates": [77.3375, 23.2875]}}, {"type": "Feature", "properties": {"airport_name": "Dimapur"}, "geometry": {"type": "Point", "coordinates": [93.77111111, 25.88388889]}}, {"type": "Feature", "properties": {"airport_name": "Gaya"}, "geometry": {"type": "Point", "coordinates": [84.95111111, 24.74444444]}}, {"type": "Feature", "properties": {"airport_name": "Hubli"}, "geometry": {"type": "Point", "coordinates": [75.08472222, 15.36166667]}}, {"type": "Feature", "properties": {"airport_name": "Jammu"}, "geometry": {"type": "Point", "coordinates": [74.8375, 32.68916667]}}, {"type": "Feature", "properties": {"airport_name": "Jamnagar"}, "geometry": {"type": "Point", "coordinates": [70.01260376, 22.46549988]}}, {"type": "Feature", "properties": {"airport_name": "Jodhpur"}, "geometry": {"type": "Point", "coordinates": [73.04888889, 26.25111111]}}, {"type": "Feature", "properties": {"airport_name": "Khajuraho"}, "geometry": {"type": "Point", "coordinates": [79.91860199, 24.81719971]}}, {"type": "Feature", "properties": {"airport_name": "Lucknow"}, "geometry": {"type": "Point", "coordinates": [80.88333333, 26.76194444]}}, {"type": "Feature", "properties": {"airport_name": "Nanded"}, "geometry": {"type": "Point", "coordinates": [77.31861111, 19.18194444]}}, {"type": "Feature", "properties": {"airport_name": "Raipur"}, "geometry": {"type": "Point", "coordinates": [81.73847222, 21.18111111]}}, {"type": "Feature", "properties": {"airport_name": "Rajkot"}, "geometry": {"type": "Point", "coordinates": [70.77950287, 22.30920029]}}, {"type": "Feature", "properties": {"airport_name": "Vadodara"}, "geometry": {"type": "Point", "coordinates": [73.21944444, 22.32944444]}}, {"type": "Feature", "properties": {"airport_name": "Agatti"}, "geometry": {"type": "Point", "coordinates": [72.17888889, 10.82805556]}}, {"type": "Feature", "properties": {"airport_name": "Allahabad"}, "geometry": {"type": "Point", "coordinates": [81.73388889, 25.44]}}, {"type": "Feature", "properties": {"airport_name": "Bathinda"}, "geometry": {"type": "Point", "coordinates": [74.755556, 30.27]}}, {"type": "Feature", "properties": {"airport_name": "Bhavnagar"}, "geometry": {"type": "Point", "coordinates": [72.18527778, 21.75222222]}}, {"type": "Feature", "properties": {"airport_name": "Bhuj"}, "geometry": {"type": "Point", "coordinates": [69.67027778, 23.28777778]}}, {"type": "Feature", "properties": {"airport_name": "Bikaner"}, "geometry": {"type": "Point", "coordinates": [73.20694444, 28.07055556]}}, {"type": "Feature", "properties": {"airport_name": "Diu"}, "geometry": {"type": "Point", "coordinates": [70.925, 20.713]}}, {"type": "Feature", "properties": {"airport_name": "Gwalior"}, "geometry": {"type": "Point", "coordinates": [78.22777778, 26.29333333]}}, {"type": "Feature", "properties": {"airport_name": "Kullu"}, "geometry": {"type": "Point", "coordinates": [77.15444444, 31.87666667]}}, {"type": "Feature", "properties": {"airport_name": "Lilabari"}, "geometry": {"type": "Point", "coordinates": [94.09777778, 27.29555556]}}, {"type": "Feature", "properties": {"airport_name": "Ludhiana"}, "geometry": {"type": "Point", "coordinates": [75.9525, 30.85472222]}}, {"type": "Feature", "properties": {"airport_name": "Pathankot"}, "geometry": {"type": "Point", "coordinates": [75.63444444, 32.23361111]}}, {"type": "Feature", "properties": {"airport_name": "Shillong"}, "geometry": {"type": "Point", "coordinates": [91.97861111, 25.70361111]}}, {"type": "Feature", "properties": {"airport_name": "Shimla"}, "geometry": {"type": "Point", "coordinates": [77.06805556, 31.08166667]}}, {"type": "Feature", "properties": {"airport_name": "Shirdi"}, "geometry": {"type": "Point", "coordinates": [74.37888889, 19.68861111]}}, {"type": "Feature", "properties": {"airport_name": "Tezpur"}, "geometry": {"type": "Point", "coordinates": [92.78722222, 26.71222222]}}, {"type": "Feature", "properties": {"airport_name": "Trichy"}, "geometry": {"type": "Point", "coordinates": [78.70972222, 10.76527778]}}, {"type": "Feature", "properties": {"airport_name": "Jorhat"}, "geometry": {"type": "Point", "coordinates": [94.17549896, 26.73150063]}}, {"type": "Feature", "properties": {"airport_name": "Thoise"}, "geometry": {"type": "Point", "coordinates": [77.633333, 35.083333]}}, {"type": "Feature", "properties": {"airport_name": "Cuddapah"}, "geometry": {"type": "Point", "coordinates": [78.77277778, 14.51]}}, {"type": "Feature", "properties": {"airport_name": "Mysore"}, "geometry": {"type": "Point", "coordinates": [76.65583333, 12.23]}}, {"type": "Feature", "properties": {"airport_name": "Salem"}, "geometry": {"type": "Point", "coordinates": [78.06444444, 11.78194444]}}, {"type": "Feature", "properties": {"airport_name": "Vidyanagar"}, "geometry": {"type": "Point", "coordinates": [76.6341, 15.175]}}, {"type": "Feature", "properties": {"airport_name": "Pantnagar"}, "geometry": {"type": "Point", "coordinates": [79.47416700000001, 29.032221999999997]}}]}